[
    {
        "name": "上田市役所",
        "address": "上田市大手1-11-16",
        "lat": "36.4019541",
        "long": "138.2487668",
        "period": "期日前投票期間",
        "time": "8:30～20:00"
    },
    {
        "name": "丸子地域自治センター",
        "address": "上田市上丸子1612",
        "lat": "36.323841",
        "long": "138.270315",
        "period": "期日前投票期間",
        "time": "8:30～20:00"
    },
    {
        "name": "真田地域自治センター",
        "address": "上田市真田町長7178-1",
        "lat": "36.440663",
        "long": "138.30396",
        "period": "期日前投票期間",
        "time": "8:30～20:00"
    },
    {
        "name": "武石地域自治センター",
        "address": "上田市下武石742",
        "lat": "36.284463",
        "long": "138.230574",
        "period": "期日前投票期間",
        "time": "8:30～20:00"
    },
    {
        "name": "豊殿地域自治センター",
        "address": "上田市吉田1261-2",
        "lat": "36.392780",
        "long": "138.300128",
        "period": "期日前投票期間",
        "time": "8:30～20:00"
    },
    {
        "name": "塩田地域自治センター",
        "address": "上田市中野20",
        "lat": "36.358890",
        "long": "138.198095",
        "period": "期日前投票期間",
        "time": "8:30～20:00"
    },
    {
        "name": "川西地域自治センター",
        "address": "上田市小泉863-1",
        "lat": "36.383976",
        "long": "138.185070",
        "period": "期日前投票期間",
        "time": "8:30～20:00"
    },
    {
        "name": "アリオ上田",
        "address": "上田市天神3-5-1",
        "lat": "36.399261",
        "long": "138.244577",
        "period": "期日前投票期間",
        "time": "10:00～18:00"
    }
]
